     2.10           OBSERVATION DATA    G                   RINEX VERSION / TYPE
JPS2RIN v.2.1.222   JAVAD GNSS          20221212 171423 UTC PGM / RUN BY / DATE
-Unknown-           -Unknown-                               OBSERVER / AGENCY
12345678_Test_20221212_0911                                 MARKER NAME
027DFK9V69K3N0SQRYXQJAVAD TRIUMPH2      4.1.04-211206       REC # / TYPE / VERS
 -2614431.8757 -4256132.2756  3952873.1173                  APPROX POSITION XYZ
-Unknown-                                                   ANT # / TYPE
        0.0000        0.0000        0.0000                  ANTENNA: DELTA H/E/N
     1     1                                                WAVELENGTH FACT L1/2
     9    C1    P1    L1    D1    S1    P2    L2    D2    S2# / TYPES OF OBSERV
    30.000                                                  INTERVAL
  2022    12    12    17    13    0.0000000     GPS         TIME OF FIRST OBS
  2022    12    12    17    14   30.0000000     GPS         TIME OF LAST OBS
     7                                                      # OF SATELLITES
   G 1     3     2     3     3     3     2     2     2     2PRN / # OF OBS
   G 3     3     3     3     3     3     3     3     3     3PRN / # OF OBS
   G 4     3     3     3     3     3     3     3     3     3PRN / # OF OBS
   G21     2     1     2     2     2     1     1     1     1PRN / # OF OBS
   G22     2     0     2     2     2     0     0     0     0PRN / # OF OBS
   G31     3     0     3     3     3     0     0     0     0PRN / # OF OBS
   G32     1     0     1     1     1     0     0     0     0PRN / # OF OBS
L1 is phase on CA, L2 is phase on P2 (GPS & GLONASS)        COMMENT
Phase shifts:                                               COMMENT
G L1       NAN  07 G01 G03 G04 G21 G22 G31 G32              COMMENT
G L2       NAN  04 G01 G03 G04 G21                          COMMENT
                                                            END OF HEADER
 22 12 12 17 13  0.0000000  0  6G 1G 3G 4G21G22G31                  -0.000072369
  21497168.917    21497169.387   112968409.681 6     -2067.799          41.250
  21497173.767    88027305.732 3     -1611.241          22.250
  20900121.216    20900121.676   109830858.346 7      1813.023          43.000
  20900121.276    85582551.306 4      1412.741          25.000
  22475959.769    22475960.919   118111903.623 7      2200.872          43.000
  22475959.809    92035292.483 4      1714.981          29.000
  22789002.184    22789003.004   119757018.118 5     -2432.494          35.000
  22788980.154    93317164.283 2     -1895.332          13.250
  22277977.768                   117071695.970 6     -1964.724          36.250

  21072644.919                   110737505.364 5     -1950.514          34.750

 22 12 12 17 13 30.0000000  0  5G 1G 3G 4G22G31                     -0.000073298
  21509014.643    21509015.553   113030679.035 6     -2083.857          39.250
  21509019.283    88075827.295 2     -1623.760          17.000
  20889799.038    20889798.478   109776628.547 5      1802.088          31.750
  20889803.028    85540294.362 2      1404.254          16.750
  22463410.397    22463410.337   118045956.797 7      2195.402          42.750
  22463410.977    91983905.388 5      1710.698          30.500
  22289201.908                   117130667.536 5     -1967.102          32.500

  21083824.717                   110796261.556 6     -1966.751          36.750

 22 12 12 17 14 30.0000000  0  6G 1G 3G 4G21G31G32                  -0.000075088
  21532995.869                   113156683.810 5     -2115.877          34.750

  20869360.780    20869361.500   109669198.814 7      1779.303          42.500
  20869358.080    85456582.825 3      1386.452          21.500
  22438410.476    22438411.866   117914580.956 7      2184.056          45.000
  22438410.456    91881534.588 5      1701.819          31.250
  22830846.931                   119976883.74516     -2456.156          36.250

  21106486.829                   110915248.132 6     -1999.026          36.750

  24735068.539                   129983696.36115     -2627.216          33.000

